City_ID,City,Lat,Lng,Max Temp,Humidity,Cloudiness,Wind Speed,Country,Date
0,puerto natales,-51.7236,-72.4875,-1.46,90,8,1.5,CL,1690147429
1,firuzabad,28.8438,52.5707,29.37,18,100,0.76,IR,1690147429
2,adamstown,-25.066,-130.1015,20.37,71,2,8.0,PN,1690147367
3,new plymouth,-39.0667,174.0833,13.23,91,100,1.71,NZ,1690147292
4,invercargill,-46.4,168.35,8.02,95,98,1.0,NZ,1690147364
5,bhamo,24.2667,97.2333,24.05,96,47,0.25,MM,1690147429
6,tiksi,71.6872,128.8694,6.15,68,4,2.83,RU,1690147392
7,arucas,28.1198,-15.5233,22.43,81,45,6.41,ES,1690147429
8,hettange-grande,49.4064,6.1506,21.51,69,100,0.45,FR,1690147430
9,edinburgh of the seven seas,-37.0676,-12.3116,13.34,80,66,11.06,SH,1690147430
10,yuzhno-kurilsk,44.0306,145.8556,15.74,99,98,1.68,RU,1690147430
11,uturoa,-16.7333,-151.4333,25.63,75,15,5.53,PF,1690147430
12,ilulissat,69.2167,-51.1,8.01,87,75,1.54,GL,1690147430
13,thompson,55.7435,-97.8558,21.09,43,20,4.12,CA,1690147430
14,jamestown,42.097,-79.2353,27.51,57,75,1.54,US,1690147430
15,grytviken,-54.2811,-36.5092,-6.04,76,21,3.68,GS,1690147370
16,qinhuangdao,39.9317,119.5883,22.68,88,1,0.66,CN,1690147430
17,bilibino,68.0546,166.4372,17.33,63,83,0.62,RU,1690147430
18,pacasmayo,-7.4006,-79.5714,23.28,72,16,7.14,PE,1690147430
19,waitangi,-43.9535,-176.5597,13.23,96,99,2.68,NZ,1690147369
20,puerto ayora,-0.7393,-90.3518,28.98,74,44,4.89,EC,1690147367
21,kasongo-lunda,-6.4667,16.8167,24.74,31,46,0.21,CD,1690147431
22,margaret river,-33.95,115.0667,9.58,81,0,4.32,AU,1690147396
23,iskateley,67.6803,53.1512,15.22,93,100,3.12,RU,1690147431
24,port lincoln,-34.7333,135.8667,12.67,73,100,2.64,AU,1690147375
25,port mathurin,-19.6833,63.4167,23.2,73,12,7.88,MU,1690147424
26,padang,-0.9492,100.3543,24.03,83,100,0.85,ID,1690147347
27,port-aux-francais,-49.35,70.2167,5.84,87,74,15.79,TF,1690147369
28,bethel,41.3712,-73.414,31.14,47,0,2.57,US,1690147154
29,ushuaia,-54.8,-68.3,0.81,75,75,4.12,AR,1690147420
30,dili,-8.5586,125.5736,24.09,75,35,1.96,TL,1690147432
31,longyearbyen,78.2186,15.6401,10.91,66,0,6.17,SJ,1690147374
32,altamira,-3.2033,-52.2064,30.05,66,20,1.03,BR,1690147433
33,salanso,12.1833,-4.0833,27.45,67,71,2.29,BF,1690147433
34,yantarnyy,54.8717,19.9381,14.92,87,100,1.64,RU,1690147434
35,seeb,23.6703,58.1891,30.05,79,0,2.06,OM,1690147434
36,waliso,8.5333,37.9833,14.94,90,100,0.15,ET,1690147434
37,ulaangom,49.9811,92.0667,15.41,56,14,1.83,MN,1690147434
38,vorgashor,67.5833,63.95,14.63,97,100,2.32,RU,1690147434
39,mooloolaba,-26.6833,153.1167,13.5,89,100,6.67,AU,1690147435
40,santa sylvina,-27.8326,-61.1375,23.27,43,8,3.91,AR,1690147435
41,mirpur khas,25.5251,69.0159,28.13,81,100,0.31,PK,1690147435
42,chonchi,-42.6128,-73.8092,6.18,87,100,1.21,CL,1690147435
43,puerto baquerizo moreno,-0.9,-89.6,26.55,78,75,4.63,EC,1690147435
44,papatowai,-46.5619,169.4708,8.79,95,98,1.5,NZ,1690147435
45,albany,42.6001,-73.9662,29.77,55,55,0.45,US,1690147237
46,carutapera,-1.195,-46.02,26.56,77,89,3.62,BR,1690147436
47,lacy-lakeview,31.6293,-97.1028,39.4,26,0,5.66,US,1690147436
48,mao,39.8885,4.2658,27.31,100,20,1.54,ES,1690147436
49,college,64.8569,-147.8028,27.26,51,75,0.45,US,1690147422
50,ola,59.5833,151.2833,16.19,87,99,0.53,RU,1690147436
51,bredasdorp,-34.5322,20.0403,9.72,79,63,2.53,ZA,1690147436
52,raja,8.4596,25.678,23.73,72,27,1.87,SS,1690147436
53,st. john's,47.5649,-52.7093,24.82,84,75,6.17,CA,1690147390
54,lebu,-37.6167,-73.65,10.06,80,79,2.7,CL,1690147436
55,celestun,20.8667,-90.4,32.25,60,21,5.98,MX,1690147284
56,winnipeg,49.8844,-97.147,23.04,64,75,2.06,CA,1690147242
57,haiku-pauwela,20.9219,-156.3051,29.01,70,40,9.26,US,1690147437
58,freetown,8.484,-13.2299,26.84,83,75,4.12,SL,1690147437
59,hotan,37.0997,79.9269,29.14,27,100,2.82,CN,1690147437
60,blackmans bay,-43.0167,147.3167,10.29,74,78,1.84,AU,1690147376
61,mata-utu,-13.2816,-176.1745,27.14,71,50,7.82,WF,1690147437
62,akureyri,65.6835,-18.0878,9.96,100,100,3.09,IS,1690147437
63,oban,56.4127,-5.4706,10.77,80,16,2.96,GB,1690147437
64,villamontes,-21.25,-63.5,25.21,41,0,2.42,BO,1690147437
65,minas de marcona,-15.2119,-75.1103,16.9,66,3,5.56,PE,1690147437
66,trairi,-3.2778,-39.2689,26.16,74,26,5.41,BR,1690147437
67,kodiak,57.79,-152.4072,14.73,77,0,4.63,US,1690147198
68,ust-nera,64.5667,143.2,15.17,71,35,1.65,RU,1690147438
69,hawaiian paradise park,19.5933,-154.9731,27.07,86,75,4.12,US,1690147438
70,iqaluit,63.7506,-68.5145,9.85,66,40,5.36,CA,1690147438
71,singerei,47.6667,28.1667,18.53,46,3,1.14,MD,1690147438
72,west island,-12.1568,96.8225,24.99,83,75,5.66,CC,1690147438
73,yellowknife,62.456,-114.3525,22.29,40,100,4.63,CA,1690147215
74,kalix,65.853,23.1565,12.73,96,100,2.79,SE,1690147438
75,dudinka,69.4058,86.1778,11.46,82,36,3.58,RU,1690147438
76,hermanus,-34.4187,19.2345,8.22,70,44,2.06,ZA,1690147438
77,manta,-0.95,-80.7333,28.88,74,40,5.81,EC,1690147438
78,qaqortoq,60.7167,-46.0333,11.63,81,72,0.62,GL,1690147438
79,keflavik,64.0049,-22.5624,12.24,94,75,2.06,IS,1690147439
80,papao,-17.75,-149.55,27.82,71,28,3.05,PF,1690147439
81,georgetown,5.4112,100.3354,27.96,92,20,1.54,MY,1690147249
82,anadyr,64.75,177.4833,14.28,76,75,2.68,RU,1690147416
83,weno,7.4515,151.8468,26.97,89,100,2.57,FM,1690147439
84,turar ryskulov,42.5333,70.3333,25.29,28,0,3.54,KZ,1690147439
85,changli,39.7042,119.1506,22.05,89,3,0.88,CN,1690147439
86,gualeguay,-33.1416,-59.3097,14.08,55,89,3.35,AR,1690147439
87,khanty-mansiysk,61.0042,69.0019,17.06,94,20,2.0,RU,1690147439
88,eyl,7.9803,49.8164,26.29,65,67,12.29,SO,1690147439
89,saipan,15.1355,145.701,28.14,100,20,4.63,MP,1690147439
90,aldan,58.6031,125.3894,17.04,83,34,1.18,RU,1690147439
91,orkney,-26.9802,26.6727,14.04,43,95,2.71,ZA,1690147440
92,kolonia,50.9333,6.95,19.98,86,40,3.09,DE,1690147175
93,olonkinbyen,70.9221,-8.7187,4.85,89,97,4.7,SJ,1690147440
94,avarua,-21.2078,-159.775,26.03,100,75,5.14,CK,1690147440
95,faya-largeau,17.9257,19.1043,35.16,14,42,2.09,TD,1690147440
96,yermentau,51.6214,73.1069,17.49,61,69,4.18,KZ,1690147440
97,acarau,-2.8856,-40.12,26.32,77,36,7.62,BR,1690147436
98,ribeira grande,38.5167,-28.7,23.21,82,23,3.58,PT,1690147372
99,turkmenbasy,40.0222,52.9552,27.43,44,0,1.03,TM,1690147404
100,chegdomyn,51.1167,133.0167,16.5,98,100,1.16,RU,1690147440
101,daru,-9.0763,143.2092,24.48,72,100,3.68,PG,1690147440
102,lerwick,60.1545,-1.1494,11.0,85,19,7.21,GB,1690147440
103,hobyo,5.3505,48.5268,25.13,81,47,12.73,SO,1690147440
104,north platte,41.1239,-100.7654,33.95,58,0,4.63,US,1690147441
105,fale old settlement,-9.3852,-171.2468,28.38,77,21,6.1,TK,1690147441
106,kailua-kona,19.6406,-155.9956,30.33,76,40,4.63,US,1690147441
107,lihue,21.9789,-159.3672,28.77,75,100,7.72,US,1690147441
108,salalah,17.0151,54.0924,26.05,94,100,2.06,OM,1690147292
109,washington,47.5001,-120.5015,33.52,22,0,2.19,US,1690147200
110,camana,-16.6228,-72.7111,18.0,79,10,2.58,PE,1690147441
111,les cayes,18.2,-73.75,29.39,71,82,4.96,HT,1690147441
112,zeya,53.75,127.2667,18.68,64,100,1.01,RU,1690147441
113,turtas,58.9417,69.1325,15.29,95,100,1.46,RU,1690147442
114,beloyarskiy,63.7119,66.6722,15.83,92,71,1.57,RU,1690147442
115,prince rupert,54.3161,-130.3201,15.05,79,40,2.57,CA,1690147383
116,jiwani,25.05,61.7417,28.88,85,100,4.08,PK,1690147442
117,kilindoni,-7.9139,39.6668,25.17,76,60,6.31,TZ,1690147442
118,la ronge,55.1001,-105.2842,24.12,40,75,2.57,CA,1690147442
119,saint-pierre,-21.3393,55.4781,20.87,68,0,4.63,RE,1690147442
120,wailua homesteads,22.0669,-159.378,28.44,80,100,7.72,US,1690147368
121,margate,51.3813,1.3862,16.6,85,36,2.68,GB,1690147428
122,zunyi,27.6867,106.9072,21.05,97,93,1.36,CN,1690147294
123,tamanrasset,22.785,5.5228,34.95,8,0,1.54,DZ,1690147442
124,champerico,14.3,-91.9167,31.3,67,99,3.1,GT,1690147443
125,udachny,66.4167,112.4,19.14,72,88,2.32,RU,1690147443
126,kovin,44.7475,20.9761,22.72,59,1,1.68,RS,1690147443
127,camiri,-20.05,-63.5167,24.88,53,75,1.54,BO,1690147443
128,aginskoye,51.1,114.53,12.41,93,7,1.62,RU,1690147443
129,argo,37.6333,22.7333,33.21,36,0,1.25,GR,1690147443
130,kone,-21.0595,164.8658,18.04,58,1,1.43,NC,1690147443
131,nemuro,43.3236,145.575,15.91,98,100,5.66,JP,1690147443
132,malpils,57.0111,24.9631,13.27,97,96,2.77,LV,1690147444
133,springbok,-29.6643,17.8865,6.37,90,77,1.53,ZA,1690147445
134,geraldton,-28.7667,114.6,8.23,57,0,6.69,AU,1690147445
135,san rafael del yuma,18.4299,-68.6739,32.11,58,100,5.21,DO,1690147445
136,horta,38.5333,-28.6333,22.79,82,30,3.58,PT,1690147423
137,susuman,62.7833,148.1667,12.25,74,59,1.27,RU,1690147445
138,tolanaro,-25.0319,46.9987,21.04,83,20,6.17,MG,1690147445
139,aasiaat,68.7098,-52.8699,3.78,96,100,1.42,GL,1690147445
140,hithadhoo,-0.6,73.0833,28.22,77,81,4.66,MV,1690147446
141,at-bashi,41.1702,75.8106,15.15,65,96,0.76,KG,1690147446
142,tuscaloosa,33.2098,-87.5692,31.16,50,20,3.09,US,1690147446
143,tual,-5.6667,132.75,25.15,78,100,11.23,ID,1690147446
144,la passe,45.5549,-0.8967,20.55,85,100,3.73,FR,1690147446
145,labytnangi,66.6572,66.4183,14.82,92,84,2.03,RU,1690147446
146,tura,25.5198,90.2201,24.0,94,100,1.86,IN,1690147447
147,lubang,13.8584,120.124,28.11,76,100,5.93,PH,1690147447
148,isafjordur,66.0755,-23.124,11.09,87,100,1.52,IS,1690147374
149,whitehorse,60.7161,-135.0538,19.43,68,100,3.09,CA,1690147447
150,codrington,-38.2667,141.9667,11.13,84,100,3.08,AU,1690147446
151,morehead city,34.7229,-76.726,30.57,73,0,4.12,US,1690147359
152,rio verde de mato grosso,-18.9181,-54.8442,29.06,30,15,1.97,BR,1690147447
153,ahar,38.4774,47.0699,21.86,51,6,1.97,IR,1690147447
154,changping,40.2186,116.2197,22.8,70,5,1.07,CN,1690147448
155,stanley,54.868,-1.6985,12.38,92,40,4.63,GB,1690147448
156,fallon,39.4735,-118.7774,39.95,9,0,2.06,US,1690147448
157,nema,57.5067,50.5011,13.19,81,34,2.56,RU,1690147448
158,labe,11.3182,-12.2833,19.74,92,100,1.04,GN,1690147448
159,sisimiut,66.9395,-53.6735,7.29,86,91,1.81,GL,1690147448
160,gadani,25.1185,66.7299,29.12,89,100,5.82,PK,1690147448
161,jiayuguan,39.8167,98.3,24.56,22,84,1.59,CN,1690147448
162,port alfred,-33.5906,26.891,12.88,82,100,2.68,ZA,1690147392
163,san antonio de pale,-1.4014,5.6325,22.74,82,52,4.85,GQ,1690147449
164,ak'ordat,15.5486,37.8867,29.36,56,88,5.33,ER,1690147449
165,la'ie,21.6477,-157.9253,30.98,73,13,5.87,US,1690147449
166,talnakh,69.4865,88.3972,11.23,88,11,0.51,RU,1690147449
167,happy valley-goose bay,53.3168,-60.3315,25.17,69,75,3.6,CA,1690147434
168,hanzhong,33.0728,107.0303,24.11,73,100,0.29,CN,1690147449
169,el nido,11.1858,119.3956,26.27,87,100,5.64,PH,1690147449
170,forster,-32.1667,152.5167,9.05,100,75,3.95,AU,1690147450
171,rongelap,11.1635,166.8941,28.71,71,19,8.29,MH,1690147446
172,taltal,-25.4,-70.4833,17.75,76,84,1.62,CL,1690147450
173,ostersund,63.1792,14.6357,12.56,35,0,3.6,SE,1690147450
174,salinopolis,-0.6136,-47.3561,26.9,80,39,4.93,BR,1690147266
175,battagram,34.6772,73.0233,22.44,83,23,1.56,PK,1690147450
176,aso,32.9551,131.0967,24.65,90,92,1.18,JP,1690147450
177,nadym,65.5333,72.5167,16.62,77,7,2.98,RU,1690147450
178,owen sound,44.5672,-80.9435,26.21,63,100,0.81,CA,1690147451
179,bereeda,11.8704,51.0579,31.81,51,100,4.4,SO,1690147451
180,saint-philippe,-21.3585,55.7679,20.77,85,48,5.17,RE,1690147423
181,porto velho,-8.7619,-63.9039,32.03,48,0,2.57,BR,1690147451
182,vila franca do campo,37.7167,-25.4333,22.23,81,41,3.71,PT,1690147451
183,noumea,-22.2763,166.4572,20.0,99,14,1.75,NC,1690147451
184,sena madureira,-9.0656,-68.6569,34.8,29,0,0.12,BR,1690147451
185,nizhneudinsk,54.9076,99.0276,13.59,94,100,1.47,RU,1690147451
186,mumbwa,-14.9783,27.0619,15.42,48,0,2.21,ZM,1690147452
187,crateus,-5.1783,-40.6775,28.94,35,53,2.01,BR,1690147232
188,alofi,-19.0595,-169.9187,24.94,65,73,6.69,NU,1690147452
189,vadso,70.0744,29.7487,8.49,93,100,5.66,NO,1690147452
190,whistler,50.1164,-122.9695,24.57,33,100,2.06,CA,1690147452
191,hamilton,39.1834,-84.5333,30.96,47,40,4.12,US,1690147452
192,hammerfest,70.6634,23.6821,12.25,66,0,7.2,NO,1690147453
193,suances,43.4334,-4.0434,21.66,84,20,0.0,ES,1690147453
194,morondava,-20.2833,44.2833,21.22,76,0,4.38,MG,1690147453
195,puerto escondido,15.85,-97.0667,32.46,58,75,4.12,MX,1690147453
196,okhotsk,59.3833,143.3,18.03,65,8,1.25,RU,1690147453
197,kanniyakumari,8.0833,77.5667,26.02,80,100,7.7,IN,1690147453
198,kralendijk,12.15,-68.2667,29.99,74,40,9.26,BQ,1690147453
199,petauke,-14.2426,31.3253,16.36,56,0,2.1,ZM,1690147453
200,gargalianoi,37.0667,21.6333,27.34,54,0,2.52,GR,1690147454
201,petropavlovsk-kamchatsky,53.0452,158.6483,16.33,77,75,5.0,RU,1690147348
202,kaduy,59.2,37.15,11.27,98,53,2.25,RU,1690147454
203,iquique,-20.2208,-70.1431,19.02,77,26,1.1,CL,1690147439
204,carnarvon,-24.8667,113.6333,15.67,33,0,8.86,AU,1690147455
205,klyuchi,52.2667,79.1667,19.0,69,94,1.29,RU,1690147455
206,laguna,38.421,-121.4238,39.4,33,0,2.57,US,1690147456
207,bafoulabe,13.8065,-10.8321,27.98,78,35,2.28,ML,1690147456
208,lagos,6.5833,3.75,23.9,95,100,2.8,NG,1690147456
209,coahuayana de hidalgo,18.7,-103.6583,33.68,48,85,2.52,MX,1690147456
210,cooma,-36.2333,149.1333,-1.18,95,3,0.72,AU,1690147456
211,port elizabeth,-33.918,25.5701,12.28,76,40,8.23,ZA,1690147265
212,ixtapa,20.7,-105.2,32.9,66,75,4.63,MX,1690147457
213,mildura,-34.2,142.15,2.26,88,0,3.84,AU,1690147457
214,soller,39.7662,2.7152,29.36,78,86,2.37,ES,1690147457
215,saudarkrokur,65.7461,-19.6394,10.22,97,100,0.37,IS,1690147457
216,punta arenas,-53.15,-70.9167,-0.29,81,7,3.15,CL,1690147222
217,spittal an der drau,46.8,13.5,19.14,95,33,1.5,AT,1690147458
218,port saint john's,-31.6229,29.5448,16.93,76,100,5.78,ZA,1690147458
219,ta`u,-14.2336,-169.5144,26.54,76,48,6.48,AS,1690147458
220,cam pha mines,21.0167,107.3,26.04,86,100,1.99,VN,1690147458
221,afaahiti,-17.75,-149.2833,26.93,74,66,4.21,PF,1690147395
222,kulhudhuffushi,6.6221,73.07,28.0,79,100,6.73,MV,1690147458
223,atherton,53.5237,-2.4935,14.47,95,100,0.45,GB,1690147459
224,broken hill,-31.95,141.4333,4.45,82,0,5.35,AU,1690147409
225,fiambala,-27.6871,-67.6149,14.59,39,28,3.29,AR,1690147459
226,galappo,-4.2667,35.85,15.53,80,43,2.2,TZ,1690147459
227,ihosy,-22.4,46.1167,14.57,97,5,1.72,MG,1690147459
228,sanctuary point,-35.1114,150.629,12.64,84,73,3.6,AU,1690147459
229,cukai,4.25,103.4167,25.97,92,97,1.86,MY,1690147459
230,gouda,52.0167,4.7083,19.43,85,75,7.2,NL,1690147459
231,demre,36.2537,29.9777,33.02,27,0,3.88,TR,1690147459
232,muynoq,43.7683,59.0214,30.67,29,0,2.95,UZ,1690147460
233,menongue,-14.6585,17.691,15.3,36,50,2.25,AO,1690147460
234,constantia,44.1833,28.65,18.38,62,0,1.24,RO,1690147272
235,camapua,-19.5314,-54.0439,27.22,34,14,1.55,BR,1690147460
236,rawai,7.7797,98.3253,28.06,80,79,7.82,TH,1690147460
237,ghardaia,32.4909,3.6735,35.64,8,0,3.09,DZ,1690147460
238,murmashi,68.8154,32.8115,9.23,100,100,3.13,RU,1690147461
239,newman,37.3138,-121.0208,43.19,6,100,4.04,US,1690147461
240,quellon,-43.1167,-73.6167,7.14,76,75,2.57,CL,1690147461
241,puntarenas,9.9763,-84.8384,29.15,76,90,1.97,CR,1690147461
242,ujae,8.9322,165.7642,28.77,78,92,7.48,MH,1690147461
243,machico,32.7,-16.7667,22.62,84,40,3.6,PT,1690147461
244,richards bay,-28.783,32.0377,17.29,90,47,3.52,ZA,1690147461
245,nagqu,31.5,92.0,4.66,94,100,1.46,CN,1690147462
246,mahanje,-9.9333,35.3333,16.13,85,88,1.32,TZ,1690147462
247,nogliki,51.8333,143.1667,17.65,88,87,4.22,RU,1690147462
248,palikir - national government center,6.9248,158.1611,28.47,94,100,1.54,FM,1690147315
249,jeddah,21.5169,39.2192,35.92,30,0,1.03,SA,1690147462
250,baijiantan,45.6333,85.1833,30.04,25,100,4.94,CN,1690147462
251,pisco,-13.7,-76.2167,23.03,60,0,4.12,PE,1690147368
252,enewetak,11.3474,162.3373,28.56,78,67,8.87,MH,1690147276
253,nar'yan-mar,67.6713,53.087,15.29,93,100,3.13,RU,1690147463
254,yuto,-23.6434,-64.4719,24.93,33,8,3.75,AR,1690147463
255,saint-joseph,-21.3667,55.6167,20.26,81,35,5.23,RE,1690147443
256,maryborough,-25.5333,152.7,13.76,94,99,3.85,AU,1690147463
257,vermilion,40.1667,-87.7506,31.45,55,0,3.09,US,1690147463
258,karratha,-20.7377,116.8463,15.8,32,1,9.36,AU,1690147373
259,hasaki,35.7333,140.8333,24.61,82,72,2.23,JP,1690147463
260,mount darwin,-16.7725,31.5838,12.54,71,0,0.38,ZW,1690147463
261,new norfolk,-42.7826,147.0587,10.95,87,94,1.93,AU,1690147410
262,oskarshamn,57.2645,16.4484,15.55,95,100,2.16,SE,1690147463
263,nova sintra,14.8667,-24.7167,22.94,78,96,4.73,CV,1690147387
264,ancud,-41.8697,-73.8203,5.41,80,100,4.11,CL,1690147464
265,helong,42.5397,128.9972,19.17,94,2,1.89,CN,1690147464
266,ialibu,-6.2821,143.9935,13.07,100,100,0.52,PG,1690147464
267,galveston,29.3669,-94.9669,35.06,71,75,4.63,US,1690147464
268,bodo,67.28,14.405,13.76,90,40,1.54,NO,1690147464
269,keuruu,62.2667,24.7,13.78,89,100,1.98,FI,1690147464
270,villerupt,49.4674,5.9329,20.04,74,100,2.24,FR,1690147464
271,namibe,-15.1961,12.1522,17.86,74,83,3.73,AO,1690147464
272,el porvenir,13.7617,-87.3458,31.63,49,94,2.28,HN,1690147464
273,kotido,2.9806,34.1331,22.41,61,89,3.11,UG,1690147465
274,howrah,22.5892,88.3103,28.0,94,40,1.54,IN,1690147465
275,nhamunda,-2.1861,-56.7131,32.73,37,61,2.32,BR,1690147465
276,ambon,-3.6954,128.1814,27.91,100,75,2.06,ID,1690147431
277,port macquarie,-31.4333,152.9167,9.94,79,87,4.73,AU,1690147465
278,alice springs,-23.7,133.8833,-0.25,86,0,4.12,AU,1690147179
279,natal,-5.795,-35.2094,26.36,73,75,5.66,BR,1690147165
280,northam,51.0333,-4.2167,15.92,91,98,3.19,GB,1690147465
281,atasu,48.6814,71.6433,25.51,31,47,1.99,KZ,1690147465
282,cromwell,41.5951,-72.6454,31.98,42,0,3.09,US,1690147465
283,zhezqazghan,47.7833,67.7667,26.48,36,0,6.59,KZ,1690147466
284,constitucion,-35.3333,-72.4167,12.07,70,100,3.08,CL,1690147466
285,pamanukan,-6.2842,107.8106,23.52,88,59,1.84,ID,1690147466
286,zaozersk,69.4005,32.4476,8.13,88,100,5.63,RU,1690147466
287,norilsk,69.3535,88.2027,11.35,89,20,0.62,RU,1690147466
288,ban mai,7.2041,100.5451,25.05,85,17,3.72,TH,1690147466
289,utrik,11.2278,169.8474,28.72,77,78,6.26,MH,1690147276
290,fortuna,40.5982,-124.1573,22.74,67,0,8.23,US,1690147440
291,omdurman,15.6445,32.4777,35.73,27,44,6.52,SD,1690147277
292,bouar,5.934,15.596,19.28,94,100,1.03,CF,1690147467
293,aldama,22.9167,-98.0667,36.39,43,38,7.1,MX,1690147467
294,isangel,-19.55,169.2667,21.06,78,100,0.0,VU,1690147367
295,kuta,-8.7233,115.1723,25.0,88,20,4.63,ID,1690147467
296,sittwe,20.15,92.9,27.22,87,99,3.3,MM,1690147467
297,galle,6.0367,80.217,26.46,86,100,5.89,LK,1690147467
298,kingston,17.997,-76.7936,35.69,58,20,12.35,JM,1690147208
299,jasper,37.2001,-94.3502,34.43,46,20,4.63,US,1690147188
300,kapuskasing,49.4169,-82.4331,20.05,77,75,4.63,CA,1690147468
301,palmer,42.1584,-72.3287,30.84,41,20,0.0,US,1690147188
302,kopervik,59.2835,5.3067,16.08,82,75,5.14,NO,1690147468
303,meadow lakes,61.6247,-149.6011,23.19,60,0,4.12,US,1690147468
304,male,4.1748,73.5089,28.97,79,20,5.14,MV,1690147468
305,bochum,51.4833,7.2167,18.62,87,100,2.24,DE,1690147352
306,sharkawshchyna,55.3713,27.4706,14.2,84,100,4.94,BY,1690147468
307,san luis de la loma,17.2706,-100.8939,32.28,56,24,3.2,MX,1690147468
308,muli,2.9167,73.5667,27.82,79,4,3.08,MV,1690147284
309,kochubey,44.3861,46.5825,25.26,62,79,2.21,RU,1690147468
310,tavda,58.0425,65.2726,13.76,97,100,3.57,RU,1690147469
311,khodoriv,49.4066,24.3136,16.62,75,62,2.77,UA,1690147469
312,cururupu,-1.8283,-44.8683,25.85,76,88,2.0,BR,1690147469
313,tostado,-29.232,-61.7692,17.01,42,100,6.82,AR,1690147469
314,rabo de peixe,37.8,-25.5833,21.73,78,40,3.6,PT,1690147384
315,yarmolyntsi,49.1924,26.8373,13.92,67,9,2.63,UA,1690147469
316,vilyuchinsk,52.9306,158.4028,17.15,82,79,5.28,RU,1690147469
317,merizo village,13.2658,144.6691,28.32,88,100,5.44,GU,1690147469
318,barcelos,41.5388,-8.6151,19.95,97,53,1.15,PT,1690147428
319,orange beach,30.2944,-87.5736,31.32,68,75,4.63,US,1690147470
320,zyrya,40.3661,50.2917,26.05,71,6,5.13,AZ,1690147470
321,saposoa,-6.934,-76.7716,32.56,39,3,1.86,PE,1690147470
322,fasa,28.9383,53.6482,31.58,19,40,0.0,IR,1690147470
323,arraial do cabo,-22.9661,-42.0278,21.92,83,0,7.2,BR,1690147280
324,crane,31.3974,-102.3501,37.71,17,38,2.99,US,1690147470
325,pacific grove,36.6177,-121.9166,26.88,81,0,6.69,US,1690147470
326,soio,-6.1349,12.3689,21.96,91,27,3.99,AO,1690147470
327,madalena,41.2162,-8.3345,19.19,88,75,1.26,PT,1690147471
328,sao francisco de assis,-29.5503,-55.1311,22.56,72,90,1.35,BR,1690147471
329,chegutu,-18.1302,30.1407,14.6,33,0,2.04,ZW,1690147471
330,paola,39.3599,16.0396,33.62,46,0,1.46,IT,1690147471
331,goundam,16.4145,-3.6708,34.21,37,51,2.87,ML,1690147471
332,boyolangu,-8.1181,111.8935,21.4,95,73,0.93,ID,1690147471
333,vodnyy,63.5046,53.4095,12.75,96,17,2.89,RU,1690147471
334,warrenton,-28.114,24.8475,11.87,19,100,4.4,ZA,1690147469
335,novoderevyankovskaya,46.3231,38.7472,22.46,74,65,0.21,RU,1690147471
336,torghay,49.6339,63.4981,23.16,40,31,5.2,KZ,1690147471
337,bel ombre,-4.6167,55.4167,25.91,83,75,6.17,SC,1690147472
338,namsos,64.4662,11.4957,12.95,82,100,2.06,NO,1690147472
339,nyurba,63.2842,118.3319,17.97,71,19,2.18,RU,1690147472
340,nizhnesortymskiy,62.4397,71.7603,17.66,68,44,1.68,RU,1690147472
341,kayangel,8.0823,134.7173,28.57,75,100,6.82,PW,1690147472
342,touros,-5.1989,-35.4608,25.32,77,19,8.08,BR,1690147472
343,colonia,50.9333,6.95,19.98,86,40,3.09,DE,1690147451
344,harstad,68.799,16.5293,14.89,97,41,0.89,NO,1690147472
345,itabira,-19.6192,-43.2269,17.43,86,41,1.25,BR,1690147473
346,bafra,41.5678,35.9069,22.99,68,1,2.01,TR,1690147473
347,hadibu,12.65,54.0333,24.77,81,100,9.46,YE,1690147468
348,nur-sultan,51.1801,71.446,18.97,55,0,3.0,KZ,1690147473
349,sechura,-5.5569,-80.8222,27.31,57,4,7.25,PE,1690147473
350,lambarene,-0.7001,10.2406,23.67,81,70,2.43,GA,1690147473
351,west valley,46.5921,-120.6051,35.45,25,0,5.66,US,1690147473
352,pangkalanbuun,-2.6833,111.6167,22.68,98,11,1.05,ID,1690147473
353,tsiombe,-25.3,45.4833,18.55,84,0,1.93,MG,1690147446
354,bejaia,36.7559,5.0843,39.6,20,0,2.57,DZ,1690147474
355,pesqueira,-8.3578,-36.6964,18.95,78,10,4.37,BR,1690147258
356,sitka,57.0531,-135.33,13.94,94,100,3.09,US,1690147474
357,flin flon,54.7682,-101.865,22.91,38,75,2.06,CA,1690147474
358,molteno,-31.3968,26.3625,4.81,36,86,1.13,ZA,1690147474
359,poronaysk,49.2167,143.1167,18.86,84,100,0.79,RU,1690147474
360,queenstown,-31.8976,26.8753,6.04,83,67,1.95,ZA,1690147474
361,tchintabaraden,15.8969,5.7985,35.97,31,90,4.34,NE,1690147474
362,igarka,67.4667,86.5833,15.65,90,65,2.39,RU,1690147474
363,saint-paul,-21.0096,55.2707,21.11,90,25,1.64,RE,1690147475
364,nouadhibou,20.931,-17.0347,22.99,73,86,7.72,MR,1690147475
365,egilsstadir,65.2653,-14.3948,8.95,93,100,3.09,IS,1690147475
366,fisterra,42.9049,-9.2629,18.19,89,55,3.6,ES,1690147475
367,vardenis,40.1827,45.7311,14.78,77,12,1.57,AM,1690147475
368,rio grande,-32.035,-52.0986,16.06,78,100,5.31,BR,1690147475
369,east london,-33.0153,27.9116,14.66,71,100,7.2,ZA,1690147279
370,steamboat springs,40.485,-106.8317,30.75,22,40,5.14,US,1690147475
371,luganville,-15.5333,167.1667,22.99,86,100,4.03,VU,1690147475
372,qamdo,31.1667,97.2333,5.73,92,100,1.59,CN,1690147476
373,paragominas,-2.9667,-47.4833,27.14,52,93,1.51,BR,1690147378
374,kavieng,-2.5744,150.7967,27.77,79,89,5.1,PG,1690147476
375,nova vicosa,-17.8919,-39.3719,22.07,87,17,4.91,BR,1690147222
376,ormara,25.2088,64.6357,28.11,79,100,3.7,PK,1690147476
377,chibougamau,49.9168,-74.3659,25.79,29,0,3.04,CA,1690147476
378,lucapa,-8.4192,20.7447,22.27,29,0,1.65,AO,1690147476
379,luderitz,-26.6481,15.1594,14.83,45,100,7.13,NA,1690147476
380,medina,24.4686,39.6142,37.24,10,0,4.12,SA,1690147367
381,andergrove,-21.0833,149.1833,13.14,92,99,7.15,AU,1690147477
382,superior,46.7208,-92.1041,28.17,49,0,2.57,US,1690147477
383,kruisfontein,-34.0033,24.7314,11.05,70,73,7.23,ZA,1690147477
384,coquimbo,-29.9533,-71.3436,16.85,72,0,4.12,CL,1690147234
385,retreat,38.8245,-85.8533,29.9,50,92,1.79,US,1690147477
386,gamay,12.3854,125.2979,26.29,85,100,8.02,PH,1690147477
387,amahai,-3.3333,128.9167,25.56,87,77,4.61,ID,1690147478
388,baymak,52.5933,58.3225,13.43,64,37,1.95,RU,1690147478
389,spring creek,40.7266,-115.5859,37.67,10,92,6.89,US,1690147478
390,cold springs,39.6802,-119.9766,37.83,13,0,6.17,US,1690147478
391,shingu,33.7333,135.9833,23.78,89,9,1.42,JP,1690147479
392,cabo san lucas,22.8909,-109.9124,32.01,79,100,7.2,MX,1690147203
393,remire-montjoly,4.9167,-52.2667,30.02,74,0,1.03,GF,1690147318
394,kalevala,65.2,31.1667,10.11,97,100,2.37,RU,1690147479
395,princeville,45.7668,-61.2985,25.29,95,100,4.12,CA,1690147407
396,ocean city,39.2776,-74.5746,30.01,55,22,4.78,US,1690147368
397,baukau,51.5526,7.2042,18.92,88,100,2.24,DE,1690147480
398,trincomalee,8.5711,81.2335,27.43,76,100,9.05,LK,1690147480
399,tocopilla,-22.092,-70.1979,19.25,75,22,2.43,CL,1690147480
400,pangoa,-12.1167,-73.0,29.1,46,35,1.77,PE,1690147480
401,rundu,-17.9333,19.7667,18.33,27,25,2.28,NA,1690147480
402,zaria,11.1113,7.7227,21.11,90,100,1.76,NG,1690147451
403,mil'kovo,55.6078,37.7956,15.08,93,84,2.96,RU,1690147440
404,maloye ganyushkino,46.6,49.2667,27.77,38,27,2.43,KZ,1690147481
405,tralee,52.2704,-9.7026,13.87,94,71,2.13,IE,1690147481
406,chos malal,-37.3781,-70.2709,4.27,75,100,1.51,AR,1690147481
407,zhigalovo,54.8097,105.1578,14.47,96,91,0.9,RU,1690147482
408,lompoc,34.6391,-120.4579,34.83,71,100,4.12,US,1690147482
409,bengkulu,-3.8004,102.2655,23.97,94,99,3.46,ID,1690147482
410,pyay,18.8167,95.2167,25.69,87,13,1.87,MM,1690147482
411,khorixas,-20.3667,14.9667,17.01,40,10,0.92,NA,1690147482
412,ilha de mocambique,-15.0342,40.7358,23.17,71,0,5.87,MZ,1690147482
413,dawson creek,55.7666,-120.2362,22.39,33,20,2.06,CA,1690147482
414,saulkrasti,57.2622,24.4147,13.77,87,100,2.1,LV,1690147482
415,labrador city,52.9463,-66.9114,18.95,77,75,4.12,CA,1690147483
416,borba,-4.3878,-59.5939,33.65,33,86,1.26,BR,1690147483
417,port douglas,-16.4833,145.4667,18.38,78,23,2.87,AU,1690147294
418,ketchikan,55.3422,-131.6461,17.26,67,75,4.63,US,1690147483
419,duba,27.3513,35.6901,31.98,44,11,2.46,SA,1690147483
420,yerofey pavlovich,53.9667,121.9667,17.28,71,100,1.43,RU,1690147483
421,atafu village,-8.5421,-172.5159,28.39,77,8,6.77,TK,1690147483
422,val-d'or,48.1002,-77.7828,27.05,28,75,5.66,CA,1690147429
423,khandyga,62.6667,135.6,17.75,82,14,1.1,RU,1690147457
424,maryville,35.7565,-83.9705,31.51,53,20,2.68,US,1690147259
425,las tablas,7.7667,-80.2833,30.05,71,70,2.89,PA,1690147367
426,porto novo,6.4965,2.6036,23.88,93,100,2.8,BJ,1690147484
427,alma,48.5501,-71.6491,23.94,50,5,0.88,CA,1690147484
428,mount gambier,-37.8333,140.7667,10.73,82,100,1.34,AU,1690147484
429,tazacorte,28.629,-17.9293,23.54,72,0,6.69,ES,1690147484
430,pocora,10.1718,-83.6044,32.25,84,100,1.35,CR,1690147484
431,mount pearl,47.5166,-52.7813,24.36,84,75,6.17,CA,1690147484
432,sao gabriel da cachoeira,-0.1303,-67.0892,24.68,94,85,0.5,BR,1690147484
433,tojsici,44.5011,18.7856,21.29,100,20,1.03,BA,1690147484
434,dishna,26.1247,32.476,34.32,15,2,4.11,EG,1690147484
435,san patricio,28.017,-97.5169,39.4,41,65,7.35,US,1690147485
436,lezignan-corbieres,43.1976,2.7614,24.7,71,23,3.58,FR,1690147485
437,badger,64.8,-147.5333,27.21,48,40,0.0,US,1690147380
438,martin,27.0837,-80.4164,36.66,57,10,4.39,US,1690147485
439,alexandria,31.2156,29.9553,27.3,69,0,3.9,EG,1690147485
440,kolonia town,6.964,158.206,29.06,94,100,1.54,FM,1690147485
441,fray luis beltran,-39.3167,-65.7667,8.88,31,100,3.7,AR,1690147485
442,tomatlan,19.9333,-105.25,33.56,49,87,4.17,MX,1690147485
443,terme,41.2092,36.9739,20.96,83,0,1.41,TR,1690147485
444,puerto aysen,-45.4,-72.7,2.36,93,100,1.64,CL,1690147485
445,rikaze,29.25,88.8833,14.89,53,100,1.04,CN,1690147486
446,beau vallon,-20.4189,57.6953,22.13,83,40,6.17,MU,1690147486
447,blama,7.8736,-11.3433,22.83,98,99,1.15,SL,1690147486
448,bridgewater,44.3835,-64.5155,26.73,87,76,4.12,CA,1690147203
449,bima,-8.4667,118.7167,22.03,94,47,1.52,ID,1690147486
450,san francisco tepeolulco,19.8337,-99.9852,17.08,76,94,2.33,MX,1690147486
451,ascension,30.2169,-90.9001,35.04,51,75,2.57,US,1690147486
452,chernyshevskiy,63.0128,112.4714,17.83,69,10,1.5,RU,1690147486
453,dalandzadgad,43.5708,104.425,20.76,57,0,1.66,MN,1690147486
454,north battleford,52.7834,-108.2847,28.56,39,20,5.14,CA,1690147486
455,piton saint-leu,-21.2196,55.3151,19.11,68,0,4.63,RE,1690147486
456,timbuktu,16.7735,-3.0074,34.54,37,57,5.21,ML,1690147487
457,motueka,-41.1333,173.0167,9.5,86,73,1.93,NZ,1690147487
458,penonome,8.5167,-80.3667,30.49,73,100,4.47,PA,1690147379
459,mananjary,-21.2167,48.3333,19.02,93,9,1.88,MG,1690147487
460,belmonte,-15.8631,-38.8828,22.45,86,21,5.18,BR,1690147487
461,chulym,55.0997,80.9572,16.56,84,80,2.29,RU,1690147487
462,primorskiy,43.0983,131.5875,19.94,100,100,0.97,RU,1690147487
463,usinsk,65.9939,57.5281,15.67,70,100,4.28,RU,1690147473
464,bozhou,33.8772,115.7703,26.18,86,2,2.61,CN,1690147487
465,gwalior,26.2236,78.1792,32.26,57,100,2.4,IN,1690147487
466,moengo,5.6167,-54.4,27.51,74,80,1.87,SR,1690147487
467,dunedin,-45.8742,170.5036,9.33,97,100,2.24,NZ,1690147426
468,umluj,25.0213,37.2685,32.5,41,1,0.51,SA,1690147427
469,ganghwa-gun,37.7472,126.4856,24.01,97,93,1.44,KR,1690147488
470,kenai,60.5544,-151.2583,18.05,92,0,4.63,US,1690147471
471,manaure,11.7751,-72.4445,31.79,53,100,7.76,CO,1690147488
472,kamaishi,39.2667,141.8833,22.52,85,100,2.81,JP,1690147488
473,kebili,33.7044,8.969,35.46,15,0,3.38,TN,1690147488
474,den burg,53.0542,4.7972,18.89,89,100,6.69,NL,1690147488
475,tayaman,13.2295,120.5726,25.48,88,100,1.85,PH,1690147488
476,sola,-13.8833,167.55,24.37,94,100,2.57,VU,1690147488
477,mishelevka,52.8575,103.1719,15.0,98,100,4.37,RU,1690147488
478,kuala belait,4.5833,114.1833,25.09,92,100,1.98,BN,1690147488
479,vikulovo,56.8167,70.6107,13.47,97,93,2.49,RU,1690147489
480,mount hagen,-5.8581,144.2274,15.21,98,98,1.25,PG,1690147489
481,dakhla,23.6848,-15.958,22.01,83,0,11.32,EH,1690147489
482,sao martinho,39.5144,-9.1311,20.61,85,42,1.79,PT,1690147489
483,illizi,26.4833,8.4667,35.89,10,0,7.08,DZ,1690147489
484,ingeniero jacobacci,-41.3427,-69.5448,2.04,53,100,2.59,AR,1690147386
485,necochea,-38.5473,-58.7368,7.86,75,100,5.16,AR,1690147489
486,cannonvale,-20.2833,148.7,14.66,92,94,3.16,AU,1690147489
487,moroto,2.5345,34.6666,21.34,63,75,1.28,UG,1690147489
488,port-cartier,50.0334,-66.8654,19.86,79,84,3.55,CA,1690147489
489,manakara,-22.1333,48.0167,18.71,94,7,1.95,MG,1690147490
490,birzebbuga,35.8258,14.5269,31.38,51,0,3.6,MT,1690147490
491,lago da pedra,-4.3333,-45.1667,28.4,44,64,0.85,BR,1690147490
492,praia da vitoria,38.7333,-27.0667,23.75,88,40,4.98,PT,1690147490
493,umba,66.6871,34.3429,9.17,93,100,5.83,RU,1690147490
494,bam,29.106,58.357,30.33,14,100,6.37,IR,1690147490
495,oriximina,-1.7656,-55.8661,32.56,41,44,2.49,BR,1690147490
496,vila velha,-20.3297,-40.2925,22.97,85,40,2.06,BR,1690147402
497,shakiso,5.75,38.9167,16.31,86,100,1.05,ET,1690147490
498,rockport,28.0206,-97.0544,36.16,63,0,4.63,US,1690147490
499,murzuq,25.9155,13.9184,32.86,10,1,5.6,LY,1690147490
500,riberalta,-10.9833,-66.1,33.11,46,20,3.09,BO,1690147490
501,markala,13.7021,-6.0659,31.95,45,60,2.0,ML,1690147491
502,nadi,-17.8,177.4167,24.0,73,75,1.54,FJ,1690147491
503,revda,56.801,59.9303,14.25,77,95,1.94,RU,1690147491
504,grand baie,-20.0182,57.5802,22.26,80,72,1.34,MU,1690147491
505,tommot,58.9564,126.2925,17.35,90,14,1.1,RU,1690147377
506,kakori,26.8833,80.8,29.97,79,40,3.09,IN,1690147491
507,lautoka,-17.6167,177.4667,23.92,73,75,1.54,FJ,1690147491
508,katsuura,35.1333,140.3,24.3,81,66,1.32,JP,1690147491
509,soroti,1.7146,33.6111,19.2,81,58,1.97,UG,1690147491
510,yukhnov,54.7444,35.2297,11.9,89,68,2.49,RU,1690147208
511,thaba nchu,-29.2093,26.839,7.97,52,100,1.81,ZA,1690147491
512,marshall,34.3834,-86.3333,31.17,53,0,3.6,US,1690147492
513,tamandare,-8.7597,-35.1047,24.05,82,77,4.42,BR,1690147492
514,ust'-ilimsk,58.0006,102.6619,15.46,81,13,1.23,RU,1690147389
515,mucumpiz,8.4167,-71.1333,16.58,87,97,1.88,VE,1690147492
516,sarai akil,25.3833,81.5167,32.4,57,92,2.91,IN,1690147492
517,sinabang,2.4803,96.3801,25.94,82,99,1.43,ID,1690147492
518,myitkyina,25.3833,97.4,23.92,99,64,0.32,MM,1690147492
519,shaowu,27.3409,117.4831,23.64,97,81,0.25,CN,1690147492
520,tagta,41.6504,59.9164,28.97,34,0,2.06,TM,1690147492
521,mossel bay,-34.1831,22.146,10.79,80,20,5.27,ZA,1690147492
522,banamba,13.55,-7.45,28.89,52,46,3.51,ML,1690147493
523,orosei,40.3798,9.6929,27.88,61,57,2.3,IT,1690147493
524,slatyne,50.2242,36.1608,14.54,88,0,3.0,UA,1690147493
525,garden city,42.3256,-83.331,26.63,63,100,3.09,US,1690147493
526,san pedro,14.35,121.0167,25.75,95,40,1.79,PH,1690147493
527,novomalorossiyskaya,45.6348,39.8948,21.32,78,27,2.72,RU,1690147493
528,olyokminsk,60.3736,120.4264,19.58,73,0,0.85,RU,1690147493
529,dauphin,51.1494,-100.0502,24.08,64,0,4.12,CA,1690147493
530,el calafate,-50.3408,-72.2768,-4.73,74,2,0.98,AR,1690147493
531,novyy urengoy,66.0833,76.6333,19.6,66,85,2.7,RU,1690147493
532,kristiansund,63.1115,7.732,15.03,77,20,6.17,NO,1690147432
533,novodvinsk,64.4165,40.8122,10.71,97,98,1.54,RU,1690147494
534,grants pass,42.439,-123.3284,35.1,31,0,3.6,US,1690147408
535,kocarli,37.7611,27.7058,27.99,54,0,0.0,TR,1690147494
536,formosa do rio preto,-11.0483,-45.1931,25.77,37,1,1.79,BR,1690147494
537,tank,32.2217,70.3793,34.11,53,54,1.84,PK,1690147494
538,santa cruz,-17.8,-63.1667,28.03,61,40,8.23,BO,1690147494
539,woolgoolga,-30.1106,153.2007,12.93,74,94,6.62,AU,1690147494
540,troitskoye,52.9821,84.6757,16.25,94,99,1.74,RU,1690147494
541,afif,23.9065,42.9172,30.32,10,34,1.05,SA,1690147494
542,santa terezinha,-29.9002,-50.0904,19.14,87,54,3.0,BR,1690147494
543,santiago de cao,-7.9589,-79.2392,23.07,78,20,3.6,PE,1690147494
544,weyburn,49.6668,-103.8511,29.12,30,1,2.57,CA,1690147495
545,sinaloa de leyva,25.8333,-108.2333,36.2,38,80,4.34,MX,1690147285
546,fraserburgh,57.6874,-2.0184,11.91,86,14,6.15,GB,1690147495
547,prado,-17.3411,-39.2208,21.84,89,42,4.51,BR,1690147495
548,hatillo,18.4863,-66.8254,31.03,80,100,1.79,PR,1690147495
549,massawa,15.6097,39.45,35.76,44,39,2.69,ER,1690147495
550,roccella ionica,38.322,16.4009,31.69,38,0,3.7,IT,1690147495
551,xam nua,20.4197,104.0439,19.41,97,80,0.92,LA,1690147495
552,bonthe,7.5264,-12.505,25.44,86,100,3.66,SL,1690147495
